id:865790010425429 dateTime:140330192429
id:865790010425429 dateTime:140330192432
$GPRMC,192454.908,A,5023.32424,N,3029.62663,E,0.000000,0.000000,300314,,*30   id:865790010425429 dateTime:140330192455
$GPRMC,192854.432,A,5023.31568,N,3029.61119,E,0.000000,0.000000,300314,,*3B   id:865790010425429 dateTime:140330192854
$GPRMC,192823.051,A,5028.89469,N,3037.46955,E,0.000000,0.000000,300314,,*38   id:231 dateTime:140330192823
$GPRMC,192853.178,A,5028.89020,N,3037.46879,E,0.000000,0.000000,300314,,*33   id:231 dateTime:140330192853
$GPRMC,192923.350,A,5028.88740,N,3037.47094,E,0.000000,0.000000,300314,,*37   id:231 dateTime:140330192923
$GPRMC,192953.537,A,5028.91212,N,3037.48623,E,0.000000,0.000000,300314,,*38   id:231 dateTime:140330192954
$GPRMC,193053.938,A,5028.88686,N,3037.47115,E,0.000000,0.000000,300314,,*3F   id:231 dateTime:140330193054
$GPRMC,193124.072,A,5028.89179,N,3037.46815,E,0.000000,0.000000,300314,,*37   id:231 dateTime:140330193124
$GPRMC,193154.228,A,5028.91184,N,3037.48643,E,0.000000,0.000000,300314,,*35   id:231 dateTime:140330193154
$GPRMC,193224.362,A,5028.89241,N,3037.47104,E,0.000000,0.000000,300314,,*36   id:231 dateTime:140330193224
$GPRMC,193324.709,A,5028.91263,N,3037.48277,E,0.000000,0.000000,300314,,*3F   id:231 dateTime:140330193325
$GPRMC,193354.989,A,5028.89382,N,3037.47033,E,0.000000,0.000000,300314,,*34   id:231 dateTime:140330193355
$GPRMC,193455.281,A,5028.88835,N,3037.47161,E,0.000000,0.000000,300314,,*31   id:231 dateTime:140330193455
$GPRMC,193525.428,A,5028.89029,N,3037.46829,E,0.000000,0.000000,300314,,*32   id:231 dateTime:140330193525
$GPRMC,193555.636,A,5028.89398,N,3037.46897,E,0.000000,0.000000,300314,,*34   id:231 dateTime:140330193556
$GPRMC,193625.830,A,5028.89039,N,3037.46969,E,0.000000,0.000000,300314,,*30   id:231 dateTime:140330193626
$GPRMC,193655.996,A,5028.88753,N,3037.46478,E,0.000000,0.000000,300314,,*3D   id:231 dateTime:140330193656
$GPRMC,193726.208,A,5028.91250,N,3037.48265,E,0.000000,0.000000,300314,,*3E   id:231 dateTime:140330193726
$GPRMC,193826.475,A,5028.91271,N,3037.48772,E,0.000000,0.000000,300314,,*3D   id:231 dateTime:140330193826
$GPRMC,193916.883,A,5023.31621,N,3029.61701,E,0.000000,0.000000,300314,,*3A   id:865790010425429 dateTime:140330193917
$GPRMC,193956.895,A,5028.88947,N,3037.46969,E,0.000000,0.000000,300314,,*35   id:231 dateTime:140330193957
$GPRMC,194027.146,A,5028.89299,N,3037.47133,E,0.000000,0.000000,300314,,*35   id:231 dateTime:140330194027
$GPRMC,194057.298,A,5028.90979,N,3037.48077,E,0.000000,0.000000,300314,,*31   id:231 dateTime:140330194057
$GPRMC,194127.570,A,5028.91257,N,3037.48230,E,0.000000,0.000000,300314,,*31   id:231 dateTime:140330194128
$GPRMC,194157.722,A,5028.89503,N,3037.47221,E,0.000000,0.000000,300314,,*33   id:231 dateTime:140330194158
$GPRMC,194227.867,A,5028.91043,N,3037.48644,E,0.000000,0.000000,300314,,*39   id:231 dateTime:140330194228
$GPRMC,194258.019,A,5028.89274,N,3037.47230,E,0.000000,0.000000,300314,,*37   id:231 dateTime:140330194258
$GPRMC,194328.170,A,5028.89014,N,3037.46851,E,0.000000,0.000000,300314,,*37   id:231 dateTime:140330194328
$GPRMC,194428.465,A,5028.89602,N,3037.47176,E,0.000000,0.000000,300314,,*3D   id:231 dateTime:140330194428
$GPRMC,194458.616,A,5028.89098,N,3037.47046,E,0.000000,0.000000,300314,,*3B   id:231 dateTime:140330194459
$GPRMC,194528.758,A,5028.89490,N,3037.47254,E,0.000000,0.000000,300314,,*3B   id:231 dateTime:140330194529
$GPRMC,194559.019,A,5028.89179,N,3037.47036,E,0.000000,0.000000,300314,,*3B   id:231 dateTime:140330194559
$GPRMC,194629.157,A,5028.89799,N,3037.47238,E,0.000000,0.000000,300314,,*30   id:231 dateTime:140330194629
$GPRMC,194659.329,A,5028.90145,N,3037.47771,E,0.000000,0.000000,300314,,*3B   id:231 dateTime:140330194659
$GPRMC,194729.618,A,5028.89449,N,3037.47353,E,0.000000,0.000000,300314,,*3F   id:231 dateTime:140330194730
$GPRMC,194759.762,A,5028.89027,N,3037.46843,E,0.000000,0.000000,300314,,*33   id:231 dateTime:140330194760
$GPRMC,194900.051,A,5028.89337,N,3037.47230,E,0.000000,0.000000,300314,,*3B   id:231 dateTime:140330194900
$GPRMC,194930.193,A,5028.88500,N,3037.46825,E,0.000000,0.000000,300314,,*3B   id:231 dateTime:140330194930
$GPRMC,195000.336,A,5028.88754,N,3037.46488,E,0.000000,0.000000,300314,,*35   id:231 dateTime:140330195000
$GPRMC,195030.498,A,5028.88936,N,3037.46844,E,0.000000,0.000000,300314,,*33   id:231 dateTime:140330195030
$GPRMC,195100.778,A,5028.88609,N,3037.46795,E,0.000000,0.000000,300314,,*3C   id:231 dateTime:140330195101
$GPRMC,195201.174,A,5028.88887,N,3037.46702,E,0.000000,0.000000,300314,,*32   id:231 dateTime:140330195201
$GPRMC,195301.475,A,5028.88534,N,3037.46756,E,0.000000,0.000000,300314,,*33   id:231 dateTime:140330195301
$GPRMC,195331.629,A,5028.88749,N,3037.46476,E,0.000000,0.000000,300314,,*32   id:231 dateTime:140330195332
$GPRMC,195532.197,A,5028.89015,N,3037.46848,E,0.000000,0.000000,300314,,*3B   id:231 dateTime:140330195532
$GPRMC,195632.531,A,5028.88236,N,3037.46839,E,0.000000,0.000000,300314,,*34   id:231 dateTime:140330195633
$GPRMC,195702.676,A,5028.88984,N,3037.46689,E,0.000000,0.000000,300314,,*31   id:231 dateTime:140330195703
$GPRMC,195732.813,A,5028.88402,N,3037.46768,E,0.000000,0.000000,300314,,*32   id:231 dateTime:140330195733
$GPRMC,195802.951,A,5028.88754,N,3037.46488,E,0.000000,0.000000,300314,,*34   id:231 dateTime:140330195803
$GPRMC,200003.548,A,5028.88621,N,3037.46998,E,0.000000,0.000000,300314,,*39   id:231 dateTime:140330200004
$GPRMC,200033.757,A,5028.90724,N,3037.48715,E,0.000000,0.000000,300314,,*3E   id:231 dateTime:140330200034
$GPRMC,200103.906,A,5028.91186,N,3037.49170,E,0.000000,0.000000,300314,,*3D   id:231 dateTime:140330200104
$GPRMC,200134.397,A,5028.89001,N,3037.47215,E,0.000000,0.000000,300314,,*32   id:231 dateTime:140330200134
$GPRMC,200204.918,A,5028.88754,N,3037.46488,E,0.000000,0.000000,300314,,*3A   id:231 dateTime:140330200205
$GPRMC,200235.114,A,5028.88656,N,3037.47949,E,0.000000,0.000000,300314,,*3E   id:231 dateTime:140330200235
$GPRMC,200305.320,A,5028.89009,N,3037.46854,E,0.000000,0.000000,300314,,*38   id:231 dateTime:140330200305
$GPRMC,200436.008,A,5028.88620,N,3037.46916,E,0.000000,0.000000,300314,,*3D   id:231 dateTime:140330200436
$GPRMC,205753.058,A,5028.89169,N,3037.47252,E,0.000000,0.000000,300314,,*3C   id:231 dateTime:140330205753
$GPRMC,205823.324,A,5028.91201,N,3037.49541,E,0.000000,0.000000,300314,,*33   id:231 dateTime:140330205823
$GPRMC,205853.491,A,5028.89154,N,3037.47000,E,0.000000,0.000000,300314,,*39   id:231 dateTime:140330205853
$GPRMC,205953.770,A,5028.89269,N,3037.47692,E,0.000000,0.000000,300314,,*34   id:231 dateTime:140330205954
$GPRMC,210023.951,A,5028.88971,N,3037.46743,E,0.000000,0.000000,300314,,*3C   id:231 dateTime:140330210024
$GPRMC,210054.127,A,5028.89368,N,3037.47245,E,0.000000,0.000000,300314,,*34   id:231 dateTime:140330210054
$GPRMC,210124.302,A,5028.88996,N,3037.46986,E,0.000000,0.000000,300314,,*38   id:231 dateTime:140330210124
$GPRMC,210254.671,A,5028.88753,N,3037.46477,E,0.000000,0.000000,300314,,*39   id:231 dateTime:140330210255
$GPRMC,210354.960,A,5028.88452,N,3037.46772,E,0.000000,0.000000,300314,,*33   id:231 dateTime:140330210355
$GPRMC,210425.132,A,5028.91389,N,3037.50365,E,0.000000,0.000000,300314,,*31   id:231 dateTime:140330210425
$GPRMC,210455.331,A,5028.89334,N,3037.47289,E,0.000000,0.000000,300314,,*3D   id:231 dateTime:140330210455
$GPRMC,210555.612,A,5028.90982,N,3037.49681,E,0.000000,0.000000,300314,,*35   id:231 dateTime:140330210556
$GPRMC,210625.750,A,5028.89092,N,3037.46786,E,0.000000,0.000000,300314,,*3F   id:231 dateTime:140330210626
$GPRMC,210656.036,A,5028.89349,N,3037.47221,E,0.000000,0.000000,300314,,*30   id:231 dateTime:140330210656
$GPRMC,210726.219,A,5028.89005,N,3037.46744,E,0.000000,0.000000,300314,,*35   id:231 dateTime:140330210726
$GPRMC,211157.631,A,5028.89248,N,3037.47151,E,0.000000,0.000000,300314,,*32   id:231 dateTime:140330211158
$GPRMC,211257.959,A,5028.88941,N,3037.46845,E,0.000000,0.000000,300314,,*3E   id:231 dateTime:140330211258
$GPRMC,211328.267,A,5028.89240,N,3037.47161,E,0.000000,0.000000,300314,,*34   id:231 dateTime:140330211328
$GPRMC,211358.545,A,5028.88847,N,3037.47156,E,0.000000,0.000000,300314,,*3C   id:231 dateTime:140330211359
$GPRMC,211428.713,A,5028.89145,N,3037.46795,E,0.000000,0.000000,300314,,*3F   id:231 dateTime:140330211429
$GPRMC,211458.905,A,5028.89300,N,3037.47259,E,0.000000,0.000000,300314,,*36   id:231 dateTime:140330211459
$GPRMC,211529.078,A,5028.89017,N,3037.46763,E,0.000000,0.000000,300314,,*3A   id:231 dateTime:140330211529
$GPRMC,211629.454,A,5028.89319,N,3037.47088,E,0.000000,0.000000,300314,,*3D   id:231 dateTime:140330211629
$GPRMC,211759.940,A,5028.89028,N,3037.46797,E,0.000000,0.000000,300314,,*3A   id:231 dateTime:140330211760
$GPRMC,211900.401,A,5028.89551,N,3037.47548,E,0.000000,0.000000,300314,,*3A   id:231 dateTime:140330211900
$GPRMC,211930.554,A,5028.89127,N,3037.46857,E,0.000000,0.000000,300314,,*3F   id:231 dateTime:140330211931
$GPRMC,212030.984,A,5028.89283,N,3037.47308,E,0.000000,0.000000,300314,,*39   id:231 dateTime:140330212031
$GPRMC,212101.107,A,5028.89041,N,3037.46778,E,0.000000,0.000000,300314,,*37   id:231 dateTime:140330212101
$GPRMC,212231.621,A,5028.90916,N,3037.49323,E,0.000000,0.000000,300314,,*32   id:231 dateTime:140330212232
$GPRMC,212301.897,A,5028.89293,N,3037.46932,E,0.000000,0.000000,300314,,*38   id:231 dateTime:140330212302
$GPRMC,212332.048,A,5028.89017,N,3037.47142,E,0.000000,0.000000,300314,,*32   id:231 dateTime:140330212332
$GPRMC,212402.193,A,5028.91338,N,3037.49360,E,0.000000,0.000000,300314,,*3A   id:231 dateTime:140330212402
$GPRMC,212432.359,A,5028.89197,N,3037.47050,E,0.000000,0.000000,300314,,*3D   id:231 dateTime:140330212432
$GPRMC,212532.790,A,5028.88897,N,3037.46716,E,0.000000,0.000000,300314,,*31   id:231 dateTime:140330212533
$GPRMC,212602.917,A,5028.89187,N,3037.46853,E,0.000000,0.000000,300314,,*37   id:231 dateTime:140330212603
$GPRMC,213003.951,A,5028.91230,N,3037.50414,E,0.000000,0.000000,300314,,*3D   id:231 dateTime:140330213004
$GPRMC,213034.285,A,5028.89033,N,3037.47075,E,0.000000,0.000000,300314,,*36   id:231 dateTime:140330213034
$GPRMC,213104.429,A,5028.91767,N,3037.51151,E,0.000000,0.000000,300314,,*3B   id:231 dateTime:140330213104
$GPRMC,213134.575,A,5028.89033,N,3037.46870,E,0.000000,0.000000,300314,,*33   id:231 dateTime:140330213135
$GPRMC,045001.537,A,5023.32694,N,3029.63641,E,0.000000,0.000000,310314,,*36   id:865790010425429 dateTime:14033145002
$GPRMC,061856.257,A,5026.41742,N,3017.73115,E,0.000000,0.000000,310314,,*3A   id:231 dateTime:14033161856
$GPRMC,063035.868,A,5026.42014,N,3017.72663,E,0.000000,0.000000,310314,,*33   id:231 dateTime:14033163036
$GPRMC,063127.949,A,5026.64789,N,3029.39554,E,0.000000,0.000000,310314,,*31   id:865790010425429 dateTime:14033163128
$GPRMC,063057.000,A,5026.70230,N,3029.46610,E,0.000000,45.320000,310314,,*0A   id:865790010425429 dateTime:14033163057
$GPRMC,063106.127,A,5026.41722,N,3017.73151,E,0.000000,0.000000,310314,,*36   id:231 dateTime:14033163106
$GPRMC,063125.000,A,5026.69190,N,3029.50550,E,0.000000,42.590000,310314,,*05   id:865790010425429 dateTime:14033163125
$GPRMC,063212.937,A,5026.72082,N,3029.43809,E,0.000000,0.000000,310314,,*3E   id:865790010425429 dateTime:14033163213
$GPRMC,063134.000,A,5026.70140,N,3029.52290,E,6.943747,43.410000,310314,,*0D   id:865790010425429 dateTime:14033163134
$GPRMC,063257.937,A,5026.72082,N,3029.43809,E,0.000000,0.000000,310314,,*3F   id:865790010425429 dateTime:14033163258
$GPRMC,063219.000,A,5026.69260,N,3029.54550,E,0.000000,37.419998,310314,,*0B   id:865790010425429 dateTime:14033163219
$GPRMC,063342.956,A,5026.72082,N,3029.43809,E,0.000000,0.000000,310314,,*3D   id:865790010425429 dateTime:14033163343
$GPRMC,063304.000,A,5026.69510,N,3029.54490,E,0.000000,37.419998,310314,,*0B   id:865790010425429 dateTime:14033163304
$GPRMC,063324.000,A,5026.72090,N,3029.52890,E,6.572547,335.260010,310314,,*34   id:865790010425429 dateTime:14033163324
$GPRMC,063333.000,A,5026.74480,N,3029.49870,E,9.892338,306.869995,310314,,*30   id:865790010425429 dateTime:14033163333
$GPRMC,063427.956,A,5026.74845,N,3029.37235,E,0.000000,0.000000,310314,,*3A   id:865790010425429 dateTime:14033163428
$GPRMC,063349.000,A,5026.75400,N,3029.48420,E,0.000000,352.649994,310314,,*32   id:865790010425429 dateTime:14033163349
$GPRMC,063406.000,A,5026.76420,N,3029.44360,E,7.354969,290.250000,310314,,*34   id:865790010425429 dateTime:14033163406
$GPRMC,063417.000,A,5026.77050,N,3029.39930,E,12.513753,287.359985,310314,,*0F   id:865790010425429 dateTime:14033163417
$GPRMC,063423.000,A,5026.77650,N,3029.35760,E,16.623971,277.140015,310314,,*06   id:865790010425429 dateTime:14033163423
$GPRMC,063429.000,A,5026.77830,N,3029.31110,E,16.105691,271.320007,310314,,*02   id:865790010425429 dateTime:14033163429
$GPRMC,063527.281,A,5026.84697,N,3029.53598,E,0.000000,0.000000,310314,,*36   id:865790010425429 dateTime:14033163527
$GPRMC,063448.000,A,5026.77650,N,3029.27300,E,0.000000,272.420013,310314,,*35   id:865790010425429 dateTime:14033163448
$GPRMC,063459.000,A,5026.77570,N,3029.22390,E,18.274863,269.880005,310314,,*06   id:865790010425429 dateTime:14033163459
$GPRMC,063503.000,A,5026.77390,N,3029.18150,E,23.098466,269.380005,310314,,*0D   id:865790010425429 dateTime:14033163503
$GPRMC,063508.000,A,5026.77850,N,3029.12950,E,23.532700,278.619995,310314,,*00   id:865790010425429 dateTime:14033163508
$GPRMC,063513.000,A,5026.78590,N,3029.07930,E,22.333052,284.790009,310314,,*0F   id:865790010425429 dateTime:14033163513
$GPRMC,063519.000,A,5026.79410,N,3029.02370,E,21.423562,285.850006,310314,,*08   id:865790010425429 dateTime:14033163519
$GPRMC,063557.998,A,5026.84697,N,3029.53598,E,0.000000,0.000000,310314,,*32   id:865790010425429 dateTime:14033163558
$GPRMC,063524.000,A,5026.80260,N,3028.98140,E,20.180891,291.119995,310314,,*0C   id:865790010425429 dateTime:14033163524
$GPRMC,063529.000,A,5026.81260,N,3028.94180,E,18.903201,291.339996,310314,,*08   id:865790010425429 dateTime:14033163529
$GPRMC,063535.000,A,5026.82070,N,3028.89580,E,18.037734,282.950012,310314,,*02   id:865790010425429 dateTime:14033163535
$GPRMC,063541.000,A,5026.82960,N,3028.85430,E,16.592956,285.170013,310314,,*0D   id:865790010425429 dateTime:14033163541
$GPRMC,063547.000,A,5026.83620,N,3028.80510,E,21.026348,283.359985,310314,,*05   id:865790010425429 dateTime:14033163547
$GPRMC,063552.000,A,5026.84300,N,3028.75610,E,25.331671,282.989990,310314,,*04   id:865790010425429 dateTime:14033163552
$GPRMC,063556.000,A,5026.85050,N,3028.71300,E,26.506304,283.399994,310314,,*0F   id:865790010425429 dateTime:14033163556
$GPRMC,063600.000,A,5026.85760,N,3028.66590,E,29.053679,281.799988,310314,,*0C   id:865790010425429 dateTime:14033163600
$GPRMC,063643.775,A,5026.87468,N,3028.87804,E,0.000000,0.000000,310314,,*38   id:865790010425429 dateTime:14033163644
$GPRMC,063605.000,A,5026.86420,N,3028.60080,E,30.680558,276.380005,310314,,*07   id:865790010425429 dateTime:14033163605
$GPRMC,063609.000,A,5026.86720,N,3028.54760,E,30.681557,273.410004,310314,,*02   id:865790010425429 dateTime:14033163609
$GPRMC,063613.000,A,5026.86600,N,3028.49240,E,32.760680,268.239990,310314,,*07   id:865790010425429 dateTime:14033163613
$GPRMC,063617.000,A,5026.86260,N,3028.43640,E,32.503540,262.660004,310314,,*01   id:865790010425429 dateTime:14033163617
$GPRMC,063620.000,A,5026.85820,N,3028.39320,E,34.919847,259.970001,310314,,*0E   id:865790010425429 dateTime:14033163620
$GPRMC,063623.000,A,5026.85260,N,3028.34790,E,33.715195,254.690002,310314,,*0D   id:865790010425429 dateTime:14033163623
$GPRMC,063626.000,A,5026.84710,N,3028.30360,E,34.161437,253.729996,310314,,*0B   id:865790010425429 dateTime:14033163626
$GPRMC,063629.000,A,5026.83800,N,3028.26100,E,34.023363,253.360001,310314,,*01   id:865790010425429 dateTime:14033163629
$GPRMC,063632.000,A,5026.82960,N,3028.21890,E,33.665169,253.559998,310314,,*04   id:865790010425429 dateTime:14033163632
$GPRMC,063635.000,A,5026.82130,N,3028.17670,E,33.769222,253.259995,310314,,*00   id:865790010425429 dateTime:14033163635
$GPRMC,063639.000,A,5026.81100,N,3028.12410,E,30.224311,252.860001,310314,,*06   id:865790010425429 dateTime:14033163639
$GPRMC,063643.000,A,5026.80240,N,3028.07830,E,25.459740,253.479996,310314,,*0D   id:865790010425429 dateTime:14033163643
$GPRMC,063648.000,A,5026.79380,N,3028.03420,E,17.133246,253.000000,310314,,*03   id:865790010425429 dateTime:14033163648
$GPRMC,063711.000,A,5026.78530,N,3027.98760,E,14.151637,253.130005,310314,,*0A   id:865790010425429 dateTime:14033163711
$GPRMC,063721.000,A,5026.76600,N,3027.89750,E,24.304116,253.279999,310314,,*03   id:865790010425429 dateTime:14033163721
$GPRMC,063725.000,A,5026.75850,N,3027.85290,E,27.478830,255.360001,310314,,*0F   id:865790010425429 dateTime:14033163725
$GPRMC,063717.000,A,5026.77410,N,3027.93830,E,23.040434,251.520004,310314,,*03   id:865790010425429 dateTime:14033163717
$GPRMC,063729.000,A,5026.75020,N,3027.80490,E,28.637456,256.450012,310314,,*00   id:865790010425429 dateTime:14033163729
$GPRMC,063717.000,A,5026.77410,N,3027.93830,E,23.040434,251.520004,310314,,*03   id:865790010425429 dateTime:14033163717
$GPRMC,063813.007,A,5026.79898,N,3028.05416,E,0.000000,0.000000,310314,,*36   id:865790010425429 dateTime:14033163813
$GPRMC,063734.000,A,5026.74420,N,3027.73960,E,30.145269,264.170013,310314,,*01   id:865790010425429 dateTime:14033163734
$GPRMC,063738.000,A,5026.74360,N,3027.68440,E,31.746132,272.290009,310314,,*03   id:865790010425429 dateTime:14033163738
$GPRMC,063741.000,A,5026.74570,N,3027.64150,E,32.571578,276.690002,310314,,*06   id:865790010425429 dateTime:14033163741
$GPRMC,063744.000,A,5026.74960,N,3027.59850,E,33.093859,280.160004,310314,,*08   id:865790010425429 dateTime:14033163744
$GPRMC,063747.000,A,5026.75490,N,3027.55470,E,34.214463,281.029999,310314,,*05   id:865790010425429 dateTime:14033163747
$GPRMC,063750.000,A,5026.76080,N,3027.51120,E,34.313519,282.049988,310314,,*0E   id:865790010425429 dateTime:14033163750
$GPRMC,063756.000,A,5026.77180,N,3027.42660,E,32.278419,282.290009,310314,,*04   id:865790010425429 dateTime:14033163756
$GPRMC,063800.000,A,5026.77820,N,3027.37500,E,28.292268,282.190002,310314,,*0B   id:865790010425429 dateTime:14033163800
$GPRMC,063753.000,A,5026.76620,N,3027.46820,E,32.774687,281.440002,310314,,*0C   id:865790010425429 dateTime:14033163753
$GPRMC,063804.000,A,5026.78390,N,3027.33210,E,22.975400,282.950012,310314,,*07   id:865790010425429 dateTime:14033163804
$GPRMC,063811.000,A,5026.79210,N,3027.29120,E,6.572547,286.290009,310314,,*36   id:865790010425429 dateTime:14033163811
$GPRMC,063915.258,A,5026.60903,N,3027.67987,E,0.000000,0.000000,310314,,*3C   id:865790010425429 dateTime:14033163915
$GPRMC,063836.000,A,5026.79380,N,3027.26420,E,14.119620,281.690002,310314,,*01   id:865790010425429 dateTime:14033163836
$GPRMC,063842.000,A,5026.79800,N,3027.21400,E,22.354063,276.190002,310314,,*04   id:865790010425429 dateTime:14033163842
$GPRMC,063846.000,A,5026.79810,N,3027.17070,E,25.737889,267.100006,310314,,*00   id:865790010425429 dateTime:14033163846
$GPRMC,063850.000,A,5026.79300,N,3027.12610,E,25.763903,257.059998,310314,,*0A   id:865790010425429 dateTime:14033163850
$GPRMC,063854.000,A,5026.78300,N,3027.08520,E,24.133024,248.889999,310314,,*00   id:865790010425429 dateTime:14033163854
$GPRMC,063859.000,A,5026.77060,N,3027.03740,E,23.945922,247.750000,310314,,*04   id:865790010425429 dateTime:14033163859
$GPRMC,063903.000,A,5026.76000,N,3026.99710,E,24.907441,247.919998,310314,,*08   id:865790010425429 dateTime:14033163903
$GPRMC,063907.000,A,5026.75030,N,3026.95540,E,26.427262,249.240005,310314,,*09   id:865790010425429 dateTime:14033163907
$GPRMC,063911.000,A,5026.73970,N,3026.91060,E,27.639916,249.080002,310314,,*0B   id:865790010425429 dateTime:14033163911
$GPRMC,063915.000,A,5026.72870,N,3026.86410,E,29.342835,249.669998,310314,,*06   id:865790010425429 dateTime:14033163915
$GPRMC,063919.000,A,5026.71590,N,3026.81580,E,30.070227,248.139999,310314,,*04   id:865790010425429 dateTime:14033163919
$GPRMC,063923.000,A,5026.70450,N,3026.76830,E,29.446891,248.149994,310314,,*0B   id:865790010425429 dateTime:14033163923
$GPRMC,063927.000,A,5026.69270,N,3026.72290,E,29.087698,247.830002,310314,,*07   id:865790010425429 dateTime:14033163927
$GPRMC,063931.000,A,5026.68180,N,3026.68000,E,26.170124,249.369995,310314,,*05   id:865790010425429 dateTime:14033163931
$GPRMC,063936.000,A,5026.67060,N,3026.63190,E,22.725263,251.250000,310314,,*04   id:865790010425429 dateTime:14033163936
$GPRMC,063941.000,A,5026.65850,N,3026.59400,E,16.917130,247.369995,310314,,*0C   id:865790010425429 dateTime:14033163941
$GPRMC,064028.046,A,5026.71402,N,3026.89795,E,0.000000,0.000000,310314,,*31   id:865790010425429 dateTime:14033164028
$GPRMC,063949.000,A,5026.64520,N,3026.54790,E,12.956992,247.830002,310314,,*09   id:865790010425429 dateTime:14033163949
$GPRMC,064041.763,A,5026.66179,N,3026.68463,E,0.000000,0.000000,310314,,*34   id:865790010425429 dateTime:14033164042
$GPRMC,064003.000,A,5026.63690,N,3026.51760,E,0.000000,251.710007,310314,,*38   id:865790010425429 dateTime:14033164003
$GPRMC,064028.000,A,5026.62590,N,3026.47820,E,15.471350,246.660004,310314,,*0C   id:865790010425429 dateTime:14033164028
$GPRMC,064033.000,A,5026.61700,N,3026.43610,E,22.302035,250.410004,310314,,*02   id:865790010425429 dateTime:14033164033
$GPRMC,064038.000,A,5026.60490,N,3026.38780,E,24.165041,247.820007,310314,,*0A   id:865790010425429 dateTime:14033164038
$GPRMC,064042.000,A,5026.59400,N,3026.34720,E,25.643839,247.529999,310314,,*0D   id:865790010425429 dateTime:14033164042
$GPRMC,064046.000,A,5026.58300,N,3026.30470,E,25.887970,248.300003,310314,,*0F   id:865790010425429 dateTime:14033164046
$GPRMC,064050.000,A,5026.57140,N,3026.26100,E,26.649381,246.059998,310314,,*05   id:865790010425429 dateTime:14033164050
$GPRMC,064054.000,A,5026.56070,N,3026.21710,E,26.981561,248.250000,310314,,*0C   id:865790010425429 dateTime:14033164054
$GPRMC,064058.000,A,5026.54950,N,3026.17280,E,27.996109,248.669998,310314,,*0B   id:865790010425429 dateTime:14033164058
$GPRMC,064102.000,A,5026.53750,N,3026.12890,E,26.825477,245.039993,310314,,*03   id:865790010425429 dateTime:14033164102
$GPRMC,064106.000,A,5026.52660,N,3026.08650,E,25.173585,247.919998,310314,,*0A   id:865790010425429 dateTime:14033164106
$GPRMC,064110.000,A,5026.51670,N,3026.04640,E,22.903359,247.270004,310314,,*05   id:865790010425429 dateTime:14033164110
$GPRMC,064115.000,A,5026.50620,N,3026.00200,E,20.301955,248.350006,310314,,*02   id:865790010425429 dateTime:14033164115
$GPRMC,064121.000,A,5026.49470,N,3025.95680,E,17.750580,246.710007,310314,,*06   id:865790010425429 dateTime:14033164121
$GPRMC,064128.000,A,5026.48220,N,3025.91260,E,15.351285,247.929993,310314,,*07   id:865790010425429 dateTime:14033164128
$GPRMC,064139.000,A,5026.47190,N,3025.87050,E,6.769653,248.009995,310314,,*36   id:865790010425429 dateTime:14033164139
$GPRMC,064216.000,A,5026.46250,N,3025.83010,E,7.048804,241.029999,310314,,*38   id:865790010425429 dateTime:14033164216
$GPRMC,064223.000,A,5026.45280,N,3025.78710,E,17.985706,246.899994,310314,,*0E   id:865790010425429 dateTime:14033164223
$GPRMC,064228.000,A,5026.44200,N,3025.74510,E,22.586188,246.380005,310314,,*09   id:865790010425429 dateTime:14033164228
$GPRMC,064233.000,A,5026.42870,N,3025.69920,E,24.283105,246.369995,310314,,*0D   id:865790010425429 dateTime:14033164233
$GPRMC,064237.000,A,5026.41740,N,3025.66010,E,25.425721,247.470001,310314,,*02   id:865790010425429 dateTime:14033164237
$GPRMC,064241.000,A,5026.40600,N,3025.61890,E,26.429264,248.389999,310314,,*0D   id:865790010425429 dateTime:14033164241
$GPRMC,064324.870,A,5026.48518,N,3025.92359,E,0.000000,0.000000,310314,,*3E   id:865790010425429 dateTime:14033164325
$GPRMC,064246.000,A,5026.39190,N,3025.56590,E,25.442730,248.339996,310314,,*0D   id:865790010425429 dateTime:14033164246
$GPRMC,064250.000,A,5026.38120,N,3025.52350,E,25.958009,247.479996,310314,,*09   id:865790010425429 dateTime:14033164250
$GPRMC,064255.000,A,5026.36880,N,3025.47520,E,22.553172,247.690002,310314,,*08   id:865790010425429 dateTime:14033164255
$GPRMC,064300.000,A,5026.35820,N,3025.43330,E,19.886731,248.149994,310314,,*05   id:865790010425429 dateTime:14033164300
$GPRMC,064306.000,A,5026.34650,N,3025.38830,E,18.087761,246.279999,310314,,*02   id:865790010425429 dateTime:14033164306
$GPRMC,064312.000,A,5026.33500,N,3025.34580,E,17.793603,248.179993,310314,,*03   id:865790010425429 dateTime:14033164312
$GPRMC,064319.000,A,5026.32450,N,3025.30300,E,12.368675,247.940002,310314,,*0F   id:865790010425429 dateTime:14033164319
$GPRMC,064332.000,A,5026.31410,N,3025.26320,E,7.903265,250.589996,310314,,*39   id:865790010425429 dateTime:14033164332
$GPRMC,064342.000,A,5026.30260,N,3025.22080,E,10.383604,246.610001,310314,,*07   id:865790010425429 dateTime:14033164342
$GPRMC,064416.000,A,5026.29570,N,3025.17600,E,13.535305,236.630005,310314,,*0A   id:865790010425429 dateTime:14033164416
$GPRMC,064500.907,A,5026.30377,N,3025.30130,E,0.000000,0.000000,310314,,*3A   id:865790010425429 dateTime:14033164501
$GPRMC,064422.000,A,5026.28390,N,3025.13090,E,21.234460,243.600006,310314,,*0E   id:865790010425429 dateTime:14033164422
$GPRMC,064427.000,A,5026.27150,N,3025.08440,E,22.311040,250.350006,310314,,*08   id:865790010425429 dateTime:14033164427
$GPRMC,064432.000,A,5026.25940,N,3025.04010,E,21.437570,249.139999,310314,,*06   id:865790010425429 dateTime:14033164432
$GPRMC,064437.000,A,5026.24940,N,3024.99650,E,21.260473,250.460007,310314,,*0C   id:865790010425429 dateTime:14033164437
